,City,Lat,lng,Max temp,Humidity,Cloudiness,Wind Speed,Country,Date
0,Cape Town,-33.9258,18.4232,61.0,88,0,8.05,ZA,1619557323
1,Mogadishu,2.0371,45.3438,82.87,75,39,10.92,SO,1619557536
2,Qaanaaq,77.484,-69.3632,38.46,93,100,5.23,GL,1619557536
3,San Juan,-31.5375,-68.5364,79.56,24,0,4.56,AR,1619557380
4,Meiktila,20.8667,95.8667,78.78,64,30,9.48,MM,1619557537
5,Jalu,29.0331,21.5482,77.85,16,0,10.38,LY,1619557455
6,Gigmoto,13.7796,124.39,76.26,77,100,5.55,PH,1619557326
7,Chokurdakh,70.6333,147.9167,24.39,88,100,1.99,RU,1619557538
8,Hithadhoo,-0.6,73.0833,82.35,65,99,1.5,MV,1619557538
9,Atuona,-9.8,-139.0333,79.59,71,96,14.27,PF,1619557420
10,Saint-Philippe,-21.3585,55.7679,75.2,88,0,3.44,RE,1619557539
11,Itarema,-2.9248,-39.9167,79.7,78,19,12.93,BR,1619557539
12,Tasiilaq,65.6145,-37.6368,37.4,75,75,16.11,GL,1619557441
13,Mar del Plata,-38.0023,-57.5575,68.0,56,0,10.36,AR,1619557539
14,Mendota,36.7536,-120.3816,69.8,30,1,11.41,US,1619557540
15,São João da Barra,-21.6403,-41.0511,77.0,88,90,5.75,BR,1619557540
16,Douentza,14.9951,-2.9517,95.95,14,50,2.68,ML,1619557540
17,Sitka,57.0531,-135.33,48.2,61,90,13.8,US,1619557540
18,Nikolskoye,59.7035,30.7861,36.0,75,0,2.24,RU,1619557541
19,Hobart,-42.8794,147.3294,48.2,87,0,9.22,AU,1619557409
20,Örnsköldsvik,63.2909,18.7153,28.4,100,90,2.3,SE,1619557541
21,Faanui,-16.4833,-151.75,81.5,72,21,9.75,PF,1619557541
22,Bredasdorp,-34.5322,20.0403,57.2,82,100,3.44,ZA,1619557542
23,Butaritari,3.0707,172.7902,82.24,77,66,11.81,KI,1619557542
24,Pacific Grove,36.6177,-121.9166,63.0,55,40,13.8,US,1619557542
25,Kontagora,10.3999,5.4695,90.03,33,95,5.53,NG,1619557543
26,Port Alfred,-33.5906,26.891,64.96,83,56,12.01,ZA,1619557543
27,Torrevieja,37.9787,-0.6822,63.0,84,41,4.76,ES,1619557543
28,Klaksvík,62.2266,-6.589,41.0,87,75,6.91,FO,1619557544
29,Faya,18.3851,42.4509,57.2,88,0,4.61,SA,1619557544
30,Tagusao,9.1924,117.8141,78.6,84,53,4.88,PH,1619557545
31,Mataura,-46.1927,168.8643,45.0,82,100,7.0,NZ,1619557418
32,Punta Arenas,-53.15,-70.9167,46.4,87,90,3.44,CL,1619557545
33,Hong Kong,22.2855,114.1577,75.0,91,96,10.56,HK,1619557274
34,Albany,42.6001,-73.9662,66.99,21,93,2.06,US,1619557546
35,Rikitea,-23.1203,-134.9692,77.54,70,1,9.71,PF,1619557546
36,Kenai,60.5544,-151.2583,57.2,28,1,6.91,US,1619557546
37,Tual,-5.6667,132.75,82.96,63,56,4.88,ID,1619557276
38,Busselton,-33.65,115.3333,55.0,97,30,3.33,AU,1619557428
39,Shingū,33.7333,135.9833,60.53,85,100,4.68,JP,1619557546
40,Ushuaia,-54.8,-68.3,42.8,93,75,0.65,AR,1619557547
41,Imola,44.3523,11.7158,54.0,90,100,2.19,IT,1619557547
42,Vaini,-21.2,-175.2,73.4,88,75,17.27,TO,1619557548
43,Tateyama,34.9833,139.8667,55.99,82,75,3.44,JP,1619557317
44,Waingapu,-9.6567,120.2641,72.12,76,36,6.06,ID,1619557548
45,Cherskiy,68.75,161.3,19.47,89,41,8.75,RU,1619557549
46,Khāsh,28.2211,61.2158,71.96,22,42,1.36,IR,1619557549
47,Saint-Joseph,-21.3667,55.6167,75.2,88,0,3.44,RE,1619557549
48,Phulbāni,20.4667,84.2333,77.34,45,0,3.62,IN,1619557549
49,Norman Wells,65.282,-126.8329,23.0,33,75,8.05,CA,1619557550
50,Airai,-8.9266,125.4092,56.07,70,11,1.48,TL,1619557328
51,Severo-Kuril'sk,50.6789,156.125,34.09,95,100,17.58,RU,1619557550
52,Coyhaique,-45.5752,-72.0662,55.4,54,75,11.5,CL,1619557550
53,Lompoc,34.6391,-120.4579,62.6,55,1,20.71,US,1619557551
54,Macklin,52.3334,-109.9348,50.0,29,80,11.5,CA,1619557551
55,Geraldton,-28.7667,114.6,55.4,82,19,3.44,AU,1619557552
56,Avarua,-21.2078,-159.775,80.6,83,75,10.36,CK,1619557552
57,Atar,20.5169,-13.0499,86.74,18,83,11.03,MR,1619557552
58,Turukhansk,65.8167,87.9833,34.81,83,100,14.74,RU,1619557553
59,Dikson,73.5069,80.5464,31.87,97,100,16.96,RU,1619557456
60,Coahuayana Viejo,18.7333,-103.6833,87.8,42,40,11.5,MX,1619557553
61,Hilo,19.7297,-155.09,84.2,54,1,9.22,US,1619557436
62,Ketchikan,55.3422,-131.6461,46.4,87,90,14.97,US,1619557354
63,Port Elizabeth,-33.918,25.5701,60.8,82,20,13.8,ZA,1619557554
64,Ponta do Sol,32.6667,-17.1,60.01,81,100,1.99,PT,1619557554
65,Yurimaguas,-5.9,-76.0833,84.2,74,40,2.17,PE,1619557554
66,New Norfolk,-42.7826,147.0587,46.0,90,88,3.27,AU,1619557555
67,Bluff,-46.6,168.3333,45.0,82,100,7.0,NZ,1619557555
68,Mubende,0.5606,31.39,61.3,99,14,2.28,UG,1619557555
69,Banjar,-8.19,114.9675,78.8,78,20,5.75,ID,1619557556
70,Kavieng,-2.5744,150.7967,82.62,73,50,6.29,PG,1619557471
71,Hermanus,-34.4187,19.2345,57.0,86,100,6.17,ZA,1619557557
72,Katsuura,35.1333,140.3,55.4,82,75,3.44,JP,1619557418
73,Tiksi,71.6872,128.8694,1.72,96,62,7.63,RU,1619557557
74,Vega de Alatorre,20.0333,-96.6333,86.56,66,11,15.1,MX,1619557557
75,Vaitape,-16.5167,-151.75,81.46,72,21,9.64,PF,1619557557
76,Tautira,-17.7333,-149.15,86.0,62,20,5.75,PF,1619557313
77,Altar,30.7,-111.8167,72.0,38,48,5.01,MX,1619557558
78,Tuatapere,-46.1333,167.6833,45.0,82,98,7.0,NZ,1619557426
79,Yablonovo,50.8523,37.3574,39.2,70,0,4.47,RU,1619557558
80,Kobeřice,49.9855,18.0521,41.0,52,0,6.91,CZ,1619557559
81,Zyryanovsk,49.7386,84.2719,42.64,73,100,2.66,KZ,1619557559
82,Bandarbeyla,9.4942,50.8122,83.28,73,100,7.29,SO,1619557510
83,Khatanga,71.9667,102.5,19.76,81,100,7.07,RU,1619557560
84,Narsaq,60.9167,-46.05,41.23,67,3,2.13,GL,1619557560
85,Shahreza,32.0339,51.8794,68.11,31,100,3.2,IR,1619557560
86,Emerald,-23.5333,148.1667,59.0,72,0,8.05,AU,1619557561
87,Srednekolymsk,67.45,153.6833,23.05,80,65,3.8,RU,1619557561
88,Puerto Ayora,-0.7393,-90.3518,86.0,66,20,9.22,EC,1619557457
89,Hervey Bay,-25.2986,152.8535,62.01,90,20,3.0,AU,1619557517
90,Barrow,71.2906,-156.7887,19.4,79,90,8.05,US,1619557561
91,Carnarvon,-24.8667,113.6333,60.8,82,0,6.91,AU,1619557562
92,Tkibuli,42.3477,42.9981,48.2,100,40,2.3,GE,1619557562
93,Nelson Bay,-32.7167,152.15,62.01,100,90,5.75,AU,1619557562
94,Saint Paul Harbor,57.79,-152.4072,42.8,87,90,18.41,US,1619557563
95,Ribas do Rio Pardo,-20.4431,-53.7592,78.78,31,0,7.56,BR,1619557563
96,Rūdbār,30.15,62.6,81.19,19,8,2.39,AF,1619557564
97,Opuwo,-18.0607,13.84,66.51,47,18,4.23,NA,1619557564
98,Zwedru,6.0667,-8.1281,75.29,95,88,4.74,LR,1619557564
99,Castro,-24.7911,-50.0119,61.03,63,0,0.94,BR,1619557565
100,Lloydminster,53.2835,-110.0016,30.2,51,90,11.5,CA,1619557542
101,Pevek,69.7008,170.3133,14.11,93,96,6.4,RU,1619557565
102,Himberg,48.0644,16.448,50.0,62,0,8.05,AT,1619557565
103,Esim,4.8699,-2.2405,82.22,82,83,10.67,GH,1619557566
104,Borūjerd,33.8973,48.7516,61.74,45,100,0.54,IR,1619557566
105,Imbituba,-28.24,-48.6703,68.0,68,40,10.36,BR,1619557494
106,Walvis Bay,-22.9575,14.5053,61.0,82,0,5.75,NA,1619557460
107,Saskylakh,71.9167,114.0833,25.5,92,96,11.03,RU,1619557566
108,Thompson,55.7435,-97.8558,24.8,54,75,17.27,CA,1619557421
109,Ribeira Grande,38.5167,-28.7,60.8,72,75,13.8,PT,1619557420
110,Abu Samrah,35.3029,37.1841,58.42,76,0,9.95,SY,1619557567
111,Bambous Virieux,-20.3428,57.7575,77.0,94,75,11.5,MU,1619557567
112,Okato,-39.2,173.8833,48.0,74,41,5.01,NZ,1619557568
113,Ardeşen,41.1911,40.9875,48.2,93,0,4.61,TR,1619557568
114,Kieta,-6.2167,155.6333,80.19,79,92,3.51,PG,1619557568
115,Poum,-20.2333,164.0167,74.46,58,0,20.58,NC,1619557461
116,Ekhabi,53.5102,142.9671,28.62,77,53,14.2,RU,1619557569
117,Chino,34.0122,-117.6889,70.0,32,40,8.05,US,1619557566
118,Tuktoyaktuk,69.4541,-133.0374,15.8,62,20,6.91,CA,1619557569
119,Mandan,46.8267,-100.8896,64.4,51,90,5.75,US,1619557569
120,Hualmay,-11.0964,-77.6139,70.86,75,82,12.95,PE,1619557425
121,Torbay,47.6666,-52.7314,46.4,93,90,11.5,CA,1619557399
122,São Filipe,14.8961,-24.4956,72.7,76,13,16.78,CV,1619557570
123,Esperance,-33.8667,121.9,51.8,100,75,5.75,AU,1619557570
124,Bulatukan,6.9025,125.1608,75.2,100,75,4.61,PH,1619557571
125,Acarí,-15.4311,-74.6158,75.33,63,99,7.2,PE,1619557571
126,Kalmunai,7.4167,81.8167,79.77,81,94,5.86,LK,1619557571
127,Nikolayevsk-on-Amur,53.1406,140.73,32.27,89,83,5.3,RU,1619557572
128,Camaçari,-12.6975,-38.3242,80.6,69,40,9.22,BR,1619557572
129,Pontianak,-0.0333,109.3333,77.0,94,75,6.91,ID,1619557372
130,Birao,10.2849,22.7882,83.61,41,52,3.65,CF,1619557572
131,Arraial do Cabo,-22.9661,-42.0278,71.6,88,75,5.75,BR,1619557573
132,Narganá,9.4428,-78.5906,82.15,67,100,13.73,PA,1619557573
133,Santa Isabel Rio Negro,-0.4139,-65.0192,81.5,87,48,0.98,BR,1619557573
134,Buraidah,26.326,43.975,86.0,30,40,3.44,SA,1619557573
135,Kaitangata,-46.2817,169.8464,46.0,61,96,8.99,NZ,1619557574
136,Tonj,7.2737,28.6822,85.78,36,26,5.32,SS,1619557574
137,Shadrinsk,56.0852,63.6335,47.48,53,100,6.26,RU,1619557574
138,Upernavik,72.7868,-56.1549,33.08,89,87,18.72,GL,1619557575
139,Scarborough,54.2797,-0.4044,41.0,87,100,1.99,GB,1619557575
140,Aykhal,66.0,111.5,4.1,100,90,6.22,RU,1619557576
141,Manta,-0.95,-80.7333,82.4,61,90,11.5,EC,1619557576
142,Taoudenni,22.6783,-3.9836,96.85,11,27,6.26,ML,1619557438
143,Capâo Bonito,-24.0058,-48.3494,61.5,89,58,5.55,BR,1619557576
144,Bonavista,48.6499,-53.1147,44.6,87,100,8.05,CA,1619557577
145,Meadow Lake,34.8014,-106.5436,66.0,25,75,6.91,US,1619557577
146,Aklavik,68.2191,-135.0107,24.8,36,0,6.91,CA,1619557577
147,Yellowknife,62.456,-114.3525,15.8,45,20,16.11,CA,1619557578
148,Bisceglie,41.242,16.5044,61.0,82,0,2.3,IT,1619557578
149,Great Falls,47.5002,-111.3008,63.0,22,1,14.97,US,1619557578
150,Okhotsk,59.3833,143.3,26.49,88,85,2.24,RU,1619557578
151,Piaçabuçu,-10.4056,-36.4344,78.35,80,1,6.76,BR,1619557579
152,Sambava,-14.2667,50.1667,75.04,90,30,7.05,MG,1619557579
153,Dul'durga,50.6761,113.5931,22.41,57,9,12.86,RU,1619557580
154,Cajamarca,-7.1638,-78.5003,61.27,70,100,6.42,PE,1619557580
155,Bethel,41.3712,-73.414,69.01,26,1,10.36,US,1619557581
156,Lebu,-37.6167,-73.65,60.48,84,58,3.71,CL,1619557441
157,Namtsy,62.7161,129.6658,17.6,73,75,11.18,RU,1619557581
158,La Romana,18.4273,-68.9728,82.4,69,40,9.22,DO,1619557581
159,Mpika,-11.8343,31.4529,61.23,96,97,4.29,ZM,1619557582
160,Brae,60.3964,-1.353,41.0,75,40,17.27,GB,1619557471
161,Gangtok,27.3333,88.6167,58.5,49,21,5.3,IN,1619557582
162,Simplício Mendes,-7.8539,-41.9103,85.05,41,96,5.48,BR,1619557582
163,Almaznyy,48.0448,40.045,48.2,66,20,4.47,RU,1619557583
164,Provincia di Grosseto,42.8333,11.25,57.2,88,75,3.44,IT,1619557583
165,Codajás,-3.8367,-62.0569,79.79,93,72,2.21,BR,1619557583
166,Sakakah,29.9697,40.2064,69.8,19,0,6.08,SA,1619557584
167,Urucará,-2.5364,-57.76,79.09,92,95,0.63,BR,1619557584
168,Kapaa,22.0752,-159.319,79.0,83,1,8.05,US,1619557584
169,Granger,41.7481,-86.1257,84.2,39,1,16.11,US,1619557585
170,Cidreira,-30.1811,-50.2056,63.34,57,0,10.02,BR,1619557585
171,Umarkot,25.3616,69.7362,83.14,49,0,11.32,PK,1619557585
172,Inhambane,-23.865,35.3833,73.96,86,0,10.65,MZ,1619557586
173,Thaba-Tseka,-29.522,28.6084,49.37,52,88,4.45,LS,1619557586
174,Yoichi,43.2039,140.7703,44.01,62,76,7.02,JP,1619557586
175,San Felipe,10.3399,-68.7425,81.79,65,100,7.27,VE,1619557538
176,Moroni,-11.7022,43.2551,79.14,78,12,1.5,KM,1619557586
177,Locri,38.2414,16.2623,63.0,82,41,12.66,IT,1619557587
178,Dunedin,-45.8742,170.5036,48.99,49,42,3.0,NZ,1619557587
179,Vestmannaeyjar,63.4427,-20.2734,45.1,78,58,18.99,IS,1619557587
180,Ulaangom,49.9811,92.0667,40.8,48,93,0.27,MN,1619557588
181,Necochea,-38.5473,-58.7368,68.0,64,3,5.01,AR,1619557588
182,Mariehamn,60.0973,19.9348,26.6,100,0,9.19,AX,1619557588
183,Humberto de Campos,-2.5983,-43.4611,78.67,85,37,5.91,BR,1619557588
184,Bolshevik,54.0065,27.5692,39.2,87,75,11.18,BY,1619557589
185,Farim,12.4839,-15.2217,87.1,27,6,8.39,GW,1619557589
186,East London,-33.0153,27.9116,65.82,74,90,11.32,ZA,1619557590
187,Ciudad Bolivar,8.1222,-63.5497,95.86,30,97,3.85,VE,1619557516
188,Eyl,7.9803,49.8164,83.53,71,2,8.55,SO,1619557590
189,Hailun,47.45,126.9333,44.42,36,86,7.31,CN,1619557590
190,Awjilah,29.1081,21.2869,79.02,15,0,10.83,LY,1619557591
191,Goundam,16.4145,-3.6708,94.91,10,11,8.21,ML,1619557591
192,Lyngdal,58.1376,7.07,43.0,66,77,3.0,NO,1619557591
193,Isiro,2.7739,27.616,67.75,86,57,3.36,CD,1619557592
194,Cuauhtémoc,28.4167,-106.8667,73.99,15,0,23.0,MX,1619557453
195,San Mateo Ixtatán,15.8319,-91.4781,82.4,34,20,6.91,GT,1619557592
196,Khanbari,27.3747,87.2039,67.64,29,0,5.14,NP,1619557592
197,Denpasar,-8.65,115.2167,78.8,78,20,5.75,ID,1619557593
198,Umluj,25.0213,37.2685,79.03,53,0,7.67,SA,1619557593
199,Hirara,24.8,125.2833,72.34,69,86,11.36,JP,1619557593
200,Clyde River,70.4692,-68.5914,30.2,69,40,11.5,CA,1619557594
201,El Reno,35.5323,-97.955,75.99,83,90,16.11,US,1619557526
202,Hwange,-18.3693,26.5019,72.82,53,62,2.95,ZW,1619557594
203,Pangai,-19.8,-174.35,77.0,88,75,9.22,TO,1619557594
204,Nanortalik,60.1432,-45.2371,35.58,86,5,4.16,GL,1619557595
205,Pandan,14.0453,124.1694,77.2,76,99,5.79,PH,1619557595
206,Nantucket,41.2835,-70.0995,51.8,54,1,23.02,US,1619557595
207,Piet Retief,-27.0071,30.8132,55.74,44,20,3.27,ZA,1619557596
208,Nuuk,64.1835,-51.7216,37.4,87,20,8.05,GL,1619557596
209,Ridgecrest,35.6225,-117.6709,70.0,12,75,6.91,US,1619557596
210,Petrolina,-9.3986,-40.5008,84.2,54,20,3.44,BR,1619557597
211,Port Blair,11.6667,92.75,81.3,71,83,3.76,IN,1619557597
212,Petukhovo,55.0692,67.9019,47.37,88,99,1.95,RU,1619557597
213,Colac,-38.3333,143.5833,46.99,98,6,1.23,AU,1619557598
214,Leningradskiy,69.3833,178.4167,24.31,84,100,14.79,RU,1619557598
215,Chul'man,56.8479,124.9104,17.85,94,100,8.39,RU,1619557598
216,Valledupar,10.4631,-73.2532,92.32,42,96,12.24,CO,1619557598
217,Pochutla,15.7432,-96.4661,90.0,66,40,9.22,MX,1619557524
218,Yashan,22.1975,109.9419,68.85,94,100,4.0,CN,1619557599
219,Husavik,66.0449,-17.3389,42.8,70,0,9.22,IS,1619557599
220,Algiers,36.7525,3.042,59.0,82,0,2.3,DZ,1619557440
221,Hamilton,39.1834,-84.5333,82.0,32,1,19.57,US,1619557350
222,Anamur,36.0751,32.8369,60.8,82,0,4.61,TR,1619557600
223,Banda Aceh,5.5577,95.3222,79.45,79,94,3.24,ID,1619557600
224,Mersing,2.4312,103.8405,75.2,94,100,5.75,MY,1619557601
225,Fort Saint James,54.4333,-124.25,45.01,56,100,7.07,CA,1619557601
226,Miranda,3.2499,-76.2281,73.4,83,75,6.91,CO,1619557601
227,Manaure,11.7751,-72.4445,81.45,68,100,22.82,CO,1619557602
228,Ranong,9.9658,98.6348,77.5,84,59,1.03,TH,1619557602
229,Kelvington,52.1667,-103.5343,50.0,43,69,9.22,CA,1619557602
230,San Jose,37.3394,-121.895,72.0,32,20,11.5,US,1619557428
231,San Rafael,-34.6177,-68.3301,73.22,38,0,13.11,AR,1619557327
232,Constitución,-35.3333,-72.4167,62.65,62,15,11.21,CL,1619557603
233,Takoradze,4.8845,-1.7554,82.09,83,98,10.6,GH,1619557603
234,Eilat,29.5581,34.9482,73.4,40,0,20.71,IL,1619557604
235,Charters Towers,-20.1,146.2667,61.84,83,0,6.64,AU,1619557604
236,Sangar,63.9242,127.4739,4.14,95,50,5.23,RU,1619557604
237,West Wendover,40.7391,-114.0733,55.4,24,1,10.36,US,1619557605
238,Bandar-e Lengeh,26.5579,54.8807,81.72,63,10,9.35,IR,1619557605
239,Balkhash,46.844,74.9804,56.44,44,0,9.48,KZ,1619557605
240,College,64.8569,-147.8028,44.01,24,75,11.5,US,1619557606
241,Ongwediva,-17.7833,15.7667,71.6,43,30,4.61,NA,1619557606
242,Pyapon,16.2833,95.6833,78.78,80,89,2.62,MM,1619557606
243,Kiunga,-6.1219,141.2906,73.02,99,100,1.3,PG,1619557606
244,City of San Pedro,14.35,121.0167,78.01,78,20,2.3,PH,1619557607
245,Longyearbyen,78.2186,15.6401,17.6,62,90,3.44,SJ,1619557434
246,Kāzerūn,29.6195,51.6541,73.89,23,47,2.93,IR,1619557607
247,Jamestown,42.097,-79.2353,73.4,43,1,9.22,US,1619557409
248,Aberdeen,57.1437,-2.0981,43.0,93,90,4.61,GB,1619557468
249,Codrington,-38.2667,141.9667,47.08,91,21,4.21,AU,1619557420
250,Oranjemund,-28.55,16.4333,58.87,92,95,7.27,NA,1619557608
251,Groton,41.3501,-72.0784,59.0,41,1,11.5,US,1619557608
252,Eureka,40.8021,-124.1637,64.0,66,3,5.99,US,1619557608
253,Purranque,-40.9167,-73.1667,60.8,78,90,11.5,CL,1619557608
254,Tura,25.5198,90.2201,76.69,50,91,4.0,IN,1619557472
255,Khani,41.9563,42.9566,48.2,100,40,2.3,GE,1619557609
256,Poconé,-16.2567,-56.6228,86.52,38,2,4.68,BR,1619557609
257,Taltal,-25.4,-70.4833,64.51,75,28,3.85,CL,1619557609
258,Willowmore,-33.2926,23.4895,56.41,80,90,3.87,ZA,1619557610
259,Parelhas,-6.6878,-36.6575,82.85,52,10,17.74,BR,1619557610
260,Krasne,49.9145,24.6134,33.8,60,0,4.47,UA,1619557611
261,Muros,42.7762,-9.0603,57.0,77,15,14.88,ES,1619557611
262,Kiryat Gat,31.61,34.7642,64.0,74,0,3.6,IL,1619557611
263,Ormara,25.2088,64.6357,81.45,69,20,0.87,PK,1619557612
264,Arlit,18.7369,7.3853,93.61,8,71,5.37,NE,1619557612
265,Plyussa,58.4308,29.3654,34.47,96,97,2.1,RU,1619557612
266,Vila Velha,-20.3297,-40.2925,78.8,83,20,8.05,BR,1619557357
267,Borogontsy,62.6683,131.1683,15.98,92,100,7.16,RU,1619557613
268,Namatanai,-3.6667,152.4333,80.4,81,41,7.45,PG,1619557511
269,Ushtobe,45.2514,77.9838,59.85,34,6,4.76,KZ,1619557613
270,Kadaya,50.9327,119.2911,28.71,73,100,13.42,RU,1619557613
271,Alofi,-19.0595,-169.9187,81.95,79,100,23.76,NU,1619557613
272,Arrondissement de Bastia,42.6667,9.3333,57.2,94,90,9.22,FR,1619557614
273,Olinda,-8.0089,-34.8553,80.6,69,20,8.05,BR,1619557614
274,Caconda,-13.7333,15.0667,60.87,69,34,3.04,AO,1619557614
275,San Nicolas,18.1725,120.5953,73.4,88,75,2.3,PH,1619557615
276,Saint-Pierre,-21.3393,55.4781,75.2,88,0,3.44,RE,1619557476
277,Sept-Îles,50.2001,-66.3821,45.0,100,75,4.61,CA,1619557382
278,Ruteng,-8.6136,120.4721,59.52,86,39,1.19,ID,1619557615
279,Salta,-24.7859,-65.4117,68.0,56,40,6.91,AR,1619557616
280,Celestún,20.8667,-90.4,89.98,52,5,11.83,MX,1619557616
281,Cabedelo,-6.9811,-34.8339,78.8,89,20,8.05,BR,1619557617
282,Camacupa,-12.0167,17.4833,65.97,73,93,3.22,AO,1619557455
283,Szentgotthárd,46.9526,16.2736,46.0,81,100,2.44,HU,1619557332
284,Suntar,62.1444,117.6319,15.55,94,52,1.66,RU,1619557617
285,Grootfontein,-19.5667,18.1167,57.2,67,1,3.44,NA,1619557617
286,George Town,5.4112,100.3354,78.8,94,40,4.61,MY,1619557618
287,Labuhan,-6.8844,112.2051,75.76,87,33,6.6,ID,1619557618
288,Karratha,-20.7377,116.8463,75.43,24,0,10.85,AU,1619557618
289,Alta Floresta,-9.8756,-56.0861,87.8,62,40,4.61,BR,1619557619
290,Mount Isa,-20.7333,139.5,57.2,51,0,3.44,AU,1619557619
291,Oleksandrivka,48.9634,32.2349,37.09,87,33,1.72,UA,1619557619
292,Deputatsky,69.3,139.9,18.19,94,100,4.94,RU,1619557620
293,Sisimiut,66.9395,-53.6735,34.11,86,82,6.29,GL,1619557620
294,Lüderitz,-26.6481,15.1594,59.54,87,4,7.34,NA,1619557618
295,Kharp,66.8014,65.8081,32.79,98,100,5.99,RU,1619557620
296,Omsukchan,62.5333,155.8,16.65,83,7,3.78,RU,1619557620
297,Kruisfontein,-34.0033,24.7314,59.0,83,42,1.99,ZA,1619557621
298,Rawson,-43.3002,-65.1023,70.7,33,100,7.74,AR,1619557439
299,Cottonwood,34.7392,-112.0099,64.99,44,49,11.01,US,1619557621
300,Lindi,-10.0,39.7167,77.0,94,75,9.22,TZ,1619557622
301,Coquimbo,-29.9533,-71.3436,62.6,67,0,11.5,CL,1619557622
302,Dalvik,65.9702,-18.5286,42.8,70,0,9.22,IS,1619557622
303,Sarankhola,22.3082,89.7897,78.58,88,1,6.93,BD,1619557623
304,Yabrūd,33.9674,36.6574,57.2,77,0,16.11,SY,1619557623
305,Ariquemes,-9.9133,-63.0408,79.79,81,82,4.12,BR,1619557623
306,Sennar,13.5691,33.5672,92.39,22,86,3.04,SD,1619557624
307,High Level,58.5169,-117.136,19.4,38,75,3.44,CA,1619557624
308,Chapais,49.7834,-74.8492,53.6,43,1,4.61,CA,1619557624
309,Rocky Mountain House,52.3668,-114.9188,35.6,64,100,3.44,CA,1619557417
310,Fomboni,-12.28,43.7425,82.18,73,13,4.59,KM,1619557625
311,Türkan,40.3639,50.215,51.8,87,20,6.91,AZ,1619557625
312,Pisco,-13.7,-76.2167,69.8,78,0,19.57,PE,1619557425
313,Hofn,64.2539,-15.2082,44.06,75,2,6.02,IS,1619557625
314,Santa Rosa,14.3122,121.1114,78.8,73,20,2.3,PH,1619557348
315,Brownsville,25.9018,-97.4975,87.8,70,40,18.41,US,1619557559
316,Nsanje,-16.92,35.262,72.32,89,13,2.44,MW,1619557626
317,Timizart,36.8,4.2667,57.56,72,20,3.53,DZ,1619557363
318,San Quintín,30.4833,-115.95,57.56,75,99,11.23,MX,1619557626
319,Mazamari,-11.3258,-74.5308,76.37,78,98,1.88,PE,1619557626
320,Beberibe,-4.1797,-38.1306,82.4,78,0,4.61,BR,1619557627
321,Porto-Novo,6.4965,2.6036,84.2,84,20,13.8,BJ,1619557364
322,Chongwe,-15.3292,28.682,68.0,73,0,1.14,ZM,1619557627
323,Vardø,70.3705,31.1107,28.4,93,90,9.22,NO,1619557389
324,Peniche,39.3558,-9.3811,59.0,83,24,7.0,PT,1619557628
325,Killybegs,54.6333,-8.45,48.0,82,31,7.0,IE,1619557628
326,Viedma,-40.8135,-62.9967,73.18,44,3,11.99,AR,1619557339
327,Ilulissat,69.2167,-51.1,37.4,65,90,1.23,GL,1619557628
328,Japura,-0.3167,102.35,71.85,99,79,1.45,ID,1619557629
329,Saint Anthony,45.0205,-93.218,51.01,81,90,9.22,US,1619557629
330,Wanning,18.8003,110.3967,74.77,90,45,2.17,CN,1619557510
331,Flinders,-34.5833,150.8552,55.99,87,100,1.01,AU,1619557629
332,Masuda,34.6667,131.85,57.99,94,90,5.75,JP,1619557398
333,Quatre Cocos,-20.2078,57.7625,77.0,94,75,11.5,MU,1619557630
334,Ambilobe,-13.2,49.05,72.55,94,13,3.38,MG,1619557630
335,Dukat,62.55,155.55,18.19,73,1,3.58,RU,1619557630
336,Jieshi,22.8134,115.8257,71.76,90,99,6.64,CN,1619557631
337,Tres Arroyos,-38.3739,-60.2798,62.51,70,0,8.97,AR,1619557631
338,Praia,14.9215,-23.5087,71.6,73,40,13.8,CV,1619557631
339,Son La,21.3167,103.9,67.48,97,100,2.57,VN,1619557632
340,Itaituba,-4.2761,-55.9836,78.8,94,90,10.36,BR,1619557632
341,Morondava,-20.2833,44.2833,74.12,90,0,10.58,MG,1619557510
342,Flin Flon,54.7682,-101.865,26.6,33,90,13.8,CA,1619557384
343,Tsévié,6.4261,1.2133,81.68,78,79,8.86,TG,1619557633
344,Tubualá,9.5167,-79.0333,89.6,48,40,11.5,PA,1619557633
345,Skjervøy,70.0311,20.9714,35.19,57,100,12.48,NO,1619557633
346,Huancavelica,-12.7667,-74.9833,50.61,34,97,9.6,PE,1619557634
347,São Gotardo,-19.3111,-46.0489,73.99,70,87,2.3,BR,1619557634
348,Baghdad,33.3406,44.4009,73.4,35,0,4.61,IQ,1619557462
349,Paamiut,61.994,-49.6678,36.28,82,0,15.73,GL,1619557634
350,St. George's,12.0564,-61.7485,84.2,70,20,23.02,GD,1619557467
351,Thinadhoo,0.5333,72.9333,82.15,66,85,3.24,MV,1619557635
352,Chui,-33.6971,-53.4616,58.23,69,0,7.4,UY,1619557635
353,Maltahöhe,-24.8333,16.9833,66.52,36,9,5.66,NA,1619557635
354,Adigeni,41.6819,42.6987,48.2,100,40,2.3,GE,1619557636
355,Iqaluit,63.7506,-68.5145,24.8,63,20,3.44,CA,1619557636
356,Novikovo,51.1537,37.8879,37.9,68,100,6.53,RU,1619557636
357,Yulara,-25.2406,130.9889,57.2,44,0,9.22,AU,1619557636
358,Kirkuk,35.4681,44.3922,69.33,34,0,2.44,IQ,1619557637
359,Gushikawa,26.3544,127.8686,68.0,73,40,5.75,JP,1619557637
360,Ryōtsu-minato,38.0833,138.4333,54.64,61,99,7.99,JP,1619557637
361,Grand-Santi,4.25,-54.3833,76.05,91,100,2.77,GF,1619557638
362,Horizontina,-27.6258,-54.3078,63.14,47,0,4.97,BR,1619557638
363,Guerrero Negro,27.9769,-114.0611,66.85,52,2,15.7,MX,1619557639
364,Pundaguitan,6.3711,126.1689,80.58,78,49,5.64,PH,1619557639
365,Lagunas,-5.2269,-75.6753,75.76,96,94,2.98,PE,1619557639
366,Mountain Home,43.133,-115.6912,55.4,54,40,6.91,US,1619557640
367,Leticia,-4.2153,-69.9406,82.4,78,75,2.3,CO,1619557407
368,Turaif,31.6725,38.6637,66.2,48,0,6.91,SA,1619557640
369,Amazar,53.858,120.875,24.03,92,100,8.08,RU,1619557640
370,Dogondoutchi,13.6393,4.0287,94.84,12,1,7.81,NE,1619557641
371,Tuy Hoa,13.0833,109.3,76.87,88,100,1.16,VN,1619557641
372,Pacifica,37.6138,-122.4869,60.01,72,1,12.66,US,1619557641
373,Zyryanka,65.75,150.85,21.02,84,20,11.5,RU,1619557642
374,Zaragoza,41.6561,-0.8773,59.0,82,90,11.5,ES,1619557384
375,Manisa Province,38.8333,28.1667,58.15,49,97,1.25,TR,1619557642
376,Tabuk,17.4189,121.4443,70.32,86,70,0.85,PH,1619557643
377,Bac Lieu,9.285,105.7244,81.84,74,100,5.01,VN,1619557643
378,Xai-Xai,-25.0519,33.6442,73.2,60,0,7.61,MZ,1619557643
379,Batemans Bay,-35.7167,150.1833,55.0,92,100,3.0,AU,1619557644
380,Hay River,60.8156,-115.7999,12.2,57,83,10.36,CA,1619557644
381,Honiara,-9.4333,159.95,79.63,82,96,1.59,SB,1619557644
382,Farafangana,-22.8167,47.8333,72.61,87,29,3.47,MG,1619557645
383,Isangel,-19.55,169.2667,71.6,94,40,5.75,VU,1619557645
384,Provideniya,64.3833,-173.3,30.2,93,90,2.24,RU,1619557645
385,Jambi City,-1.6,103.6167,73.35,96,99,0.38,ID,1619557646
386,Paraíso,9.8383,-83.8656,78.8,60,75,14.97,CR,1619557646
387,San Patricio,28.017,-97.5169,84.2,79,90,19.57,US,1619557646
388,Port Macquarie,-31.4333,152.9167,55.0,89,50,1.99,AU,1619557646
389,Saldanha,-33.0117,17.9442,60.8,88,95,4.61,ZA,1619557647
390,Mehamn,71.0357,27.8492,30.2,69,75,17.27,NO,1619557647
391,Kapuskasing,49.4169,-82.4331,46.4,61,100,6.91,CA,1619557562
392,Nome,64.5011,-165.4064,39.2,56,1,3.44,US,1619557648
393,Zhezkazgan,47.8043,67.7144,63.59,26,9,11.27,KZ,1619557648
394,Souillac,-20.5167,57.5167,77.0,94,75,11.5,MU,1619557648
395,Jodhpur,26.2867,73.03,87.04,21,0,13.78,IN,1619557649
396,Boende,-0.2167,20.8667,74.26,90,15,3.06,CD,1619557649
397,Swift Current,50.2834,-107.8014,62.6,15,20,12.66,CA,1619557650
398,Basco,20.4487,121.9702,75.81,68,92,14.16,PH,1619557650
399,Lyubech,51.7026,30.6569,34.45,69,20,6.33,UA,1619557650
400,Severo-Yeniseyskiy,60.3725,93.0408,32.5,95,100,3.38,RU,1619557650
401,Ust-Nera,64.5667,143.2,23.97,93,100,2.91,RU,1619557651
402,Mayumba,-3.432,10.6554,78.89,89,99,3.96,GA,1619557651
403,Martvili,42.4144,42.3792,48.2,100,40,2.3,GE,1619557651
404,Kavaratti,10.5669,72.642,83.95,76,0,7.92,IN,1619557455
405,Dingle,10.9995,122.6711,77.25,83,97,6.24,PH,1619557652
406,Atambua,-9.1061,124.8925,67.69,72,5,3.56,ID,1619557652
407,Birjand,32.8663,59.2211,73.4,23,75,4.61,IR,1619557652
408,Glarus,47.0406,9.068,51.8,58,20,8.72,CH,1619557653
409,Lubawa,53.5043,19.7497,33.58,86,9,4.83,PL,1619557653
410,Gelibolu,40.4103,26.6708,51.8,87,0,5.75,TR,1619557653
411,Rabat,33.9911,-6.8401,64.99,82,75,3.44,MA,1619557654
412,Yeppoon,-23.1333,150.7333,62.6,77,0,5.75,AU,1619557570
413,San Roque,36.2107,-5.3842,64.4,72,14,12.66,ES,1619557654
414,Bozhou,33.8772,115.7703,56.52,48,100,6.35,CN,1619557654
415,Tessalit,20.1986,1.0114,92.35,9,18,1.48,ML,1619557655
416,Shirokiy,49.758,129.523,45.73,89,97,6.42,RU,1619557655
417,Gamba,-2.65,10.0,78.48,89,95,4.09,GA,1619557655
418,Las Vegas,36.175,-115.1372,66.0,27,90,11.5,US,1619557515
419,Yining,29.0361,114.5636,61.47,93,97,1.54,CN,1619557656
420,Talnakh,69.4865,88.3972,26.94,90,97,10.92,RU,1619557656
421,Causapscal,48.3542,-67.227,39.7,98,100,6.76,CA,1619557656
422,Sergeevka,53.88,67.4158,46.38,98,100,3.78,KZ,1619557657
423,Cody,44.5263,-109.0565,53.01,35,75,5.75,US,1619557526
424,Grand Haven,43.0631,-86.2284,73.99,46,90,9.22,US,1619557657
425,Cristalina,-16.7686,-47.6136,70.97,56,73,1.54,BR,1619557657
426,Broken Hill,-31.95,141.4333,51.8,62,57,5.06,AU,1619557658
427,Clovis,36.8252,-119.7029,71.01,37,20,4.61,US,1619557658
428,Vostok,46.4856,135.8833,42.69,54,100,4.23,RU,1619557658
429,Kalakamati,-20.5929,27.3121,64.18,28,1,8.23,BW,1619557659
430,Bud,39.447,-86.1758,82.4,30,1,20.71,US,1619557659
431,Muisne,0.6,-80.0333,80.6,94,75,8.05,EC,1619557659
432,Uruçuí,-7.2294,-44.5561,84.18,59,81,2.35,BR,1619557660
433,Nuoro,40.3211,9.3297,62.6,72,40,5.75,IT,1619557660
434,Petropavlovsk-Kamchatskiy,53.0452,158.6483,35.6,100,75,6.71,RU,1619557660
435,Ust'-Tarka,55.5672,75.705,45.73,97,100,4.59,RU,1619557661
436,Mana,5.6592,-53.7767,75.24,92,100,3.36,GF,1619557509
437,Beringovskiy,63.05,179.3167,32.68,98,100,5.5,RU,1619557661
438,Half Moon Bay,37.4636,-122.4286,70.0,72,1,12.66,US,1619557661
439,Cabo San Lucas,22.8909,-109.9124,77.0,49,1,26.46,MX,1619557662
440,Shimoda,34.6667,138.95,61.0,62,94,15.12,JP,1619557662
441,Ginir,7.1333,40.7,58.46,86,69,4.23,ET,1619557662
442,Samaná,19.2056,-69.3369,80.6,78,40,5.75,DO,1619557663
443,Valka,57.7752,26.0101,37.99,90,99,4.34,LV,1619557663
444,Fort Nelson,58.8053,-122.7002,14.0,67,90,1.99,CA,1619557663
445,Forsytheganj,52.6333,29.7333,32.61,91,38,6.76,BY,1619557664
446,Kattivākkam,13.2167,80.3167,82.4,83,40,3.44,IN,1619557664
447,Nurota,40.5614,65.6886,68.0,40,0,9.22,UZ,1619557664
448,Nadym,65.5333,72.5167,32.18,95,95,6.13,RU,1619557664
449,Cap Malheureux,-19.9842,57.6142,75.99,86,100,7.0,MU,1619557665
450,Erzurum Province,40.0,41.5,46.4,53,0,1.14,TR,1619557665
451,Kununurra,-15.7667,128.7333,73.4,100,62,2.35,AU,1619557525
452,Māgadi,12.9667,77.2333,75.2,64,20,1.14,IN,1619557666
453,Karatau,43.1667,70.4667,62.08,41,0,3.62,KZ,1619557666
454,Hegra,63.4644,11.114,39.2,60,75,9.22,NO,1619557666
455,Hobyo,5.3505,48.5268,84.04,70,4,12.17,SO,1619557667
456,Laguna,38.421,-121.4238,78.01,20,1,14.97,US,1619557385
457,Ostrovnoy,68.0531,39.5131,24.55,82,100,6.55,RU,1619557667
458,Grand Gaube,-20.0064,57.6608,75.99,86,100,7.0,MU,1619557668
459,Holme,56.1138,10.1725,39.0,75,100,5.01,DK,1619557668
460,San-Pédro,4.7485,-6.6363,81.34,83,61,8.08,CI,1619557465
461,Kahului,20.8947,-156.47,80.6,65,40,10.36,US,1619557401
462,Severnyy,50.677,36.5532,39.2,70,0,4.47,RU,1619557668
463,Mount Gambier,-37.8333,140.7667,50.0,100,90,2.3,AU,1619557669
464,Søgne,58.0833,7.8167,43.0,69,31,5.75,NO,1619557669
465,Puerto Ayacucho,5.6639,-67.6236,79.83,78,99,4.45,VE,1619557669
466,Rome,43.2128,-75.4557,64.99,32,90,3.87,US,1619557557
467,Elizabeth City,36.2946,-76.2511,82.4,32,1,18.41,US,1619557670
468,Mardan,34.2019,72.0525,78.8,50,40,4.61,PK,1619557670
469,Boa Vista,2.8197,-60.6733,80.6,69,40,3.44,BR,1619557670
470,Tromsø,69.6496,18.957,30.2,93,75,3.44,NO,1619557500
471,Laas,46.6166,10.7002,55.4,70,75,8.05,IT,1619557671
472,Lorengau,-2.0226,147.2712,81.41,74,96,1.66,PG,1619557671
473,Saryg-Sep,51.5,95.6,38.75,66,100,3.02,RU,1619557672
474,Ola,59.5833,151.2833,22.32,79,9,5.73,RU,1619557672
475,Svarstad,59.399,9.9698,39.0,14,97,3.49,NO,1619557672
476,Luwuk,-0.9516,122.7875,76.68,87,16,3.27,ID,1619557672
477,Neẖalim,32.0619,34.9139,64.4,77,20,3.44,IL,1619557673
478,Itoman,26.1247,127.6694,68.0,68,20,4.61,JP,1619557673
479,Kodarmā,24.4667,85.6,81.23,8,1,3.38,IN,1619557673
480,Kīhei,20.785,-156.4656,80.6,65,40,10.36,US,1619557560
481,Marysville,48.0518,-122.1771,61.0,62,1,9.22,US,1619557561
482,Portland,45.5234,-122.6762,64.99,55,75,3.44,US,1619557112
483,Noumea,-22.2763,166.4572,73.99,78,0,4.61,NC,1619557674
484,Cukai,4.25,103.4167,75.2,94,100,3.02,MY,1619557675
485,Mahébourg,-20.4081,57.7,77.0,94,75,11.5,MU,1619557463
486,Yazoo City,32.8551,-90.4056,82.4,65,20,10.36,US,1619557675
487,South Valley,35.0101,-106.6781,66.0,25,75,6.91,US,1619557676
488,Pangnirtung,66.1451,-65.7125,21.2,79,20,9.22,CA,1619557676
489,Seoul,37.5683,126.9778,51.8,87,40,4.61,KR,1619557514
490,Visby,57.6409,18.296,39.2,81,90,6.91,SE,1619557676
491,Bilma,18.6853,12.9164,89.19,10,2,5.3,NE,1619557676
492,Kot Kapūra,30.5833,74.9,84.58,14,0,3.42,IN,1619557677
493,Iguape,-24.7081,-47.5553,69.64,83,88,6.51,BR,1619557677
494,Yima,34.7381,111.8839,55.2,49,100,6.93,CN,1619557677
495,Paternion,46.7142,13.6361,44.01,99,100,2.68,AT,1619557678
496,Bathsheba,13.2167,-59.5167,80.6,61,20,13.8,BB,1619557678
497,Ébolowa,2.9,11.15,71.85,97,100,1.9,CM,1619557679
498,Gohāna,29.1333,76.7,85.75,11,0,4.45,IN,1619557575
499,Christchurch,-43.5333,172.6333,48.99,100,8,1.14,NZ,1619557597
500,Olafsvik,64.8945,-23.7142,44.17,79,99,2.68,IS,1619557679
501,Bānposh,22.25,84.8,77.58,16,0,2.64,IN,1619557680
502,Rio Grande,-32.035,-52.0986,66.2,59,0,11.5,BR,1619557395
503,Port Hedland,-20.3167,118.5667,66.2,37,2,8.05,AU,1619557680
504,Banjarmasin,-3.3244,114.591,77.0,100,90,3.44,ID,1619557680
505,Marzuq,14.4,46.4667,71.26,72,100,0.83,YE,1619557681
506,Hasaki,35.7333,140.8333,50.0,87,75,3.44,JP,1619557681
507,São Félix do Xingu,-6.6447,-51.995,75.47,94,100,0.89,BR,1619557681
508,Alice Springs,-23.7,133.8833,46.4,66,0,5.75,AU,1619557682
509,Pavlodar,52.3,76.95,53.6,62,40,11.18,KZ,1619557682
510,Hambantota,6.1241,81.1185,79.77,85,94,9.62,LK,1619557682
511,Vestmanna,62.1564,-7.1664,41.0,87,75,6.91,FO,1619557683
512,Çumra,37.5732,32.7745,55.4,62,0,2.3,TR,1619557683
513,Tyrma,50.0833,132.1667,45.91,95,100,4.47,RU,1619557683
514,Fortuna,40.5982,-124.1573,63.0,72,1,14.97,US,1619557684
515,Zhuangyuan,37.2975,120.8256,52.11,42,86,2.8,CN,1619557684
516,Øksfjord,70.2396,22.3479,32.0,69,75,12.66,NO,1619557684
517,Kumul,42.8,93.45,53.98,19,30,5.84,CN,1619557685
518,Xinxiang,35.3089,113.8672,60.44,21,100,3.51,CN,1619557685
519,Ürümqi,43.801,87.6005,53.6,40,0,6.71,CN,1619557685
520,Manzhouli,49.6,117.4333,30.42,58,100,22.3,CN,1619557686
521,Camocim,-2.9022,-40.8411,80.11,82,72,10.29,BR,1619557686
522,Nemuro,43.3236,145.575,38.66,78,95,2.68,JP,1619557686
523,Talcahuano,-36.7167,-73.1167,62.6,77,0,14.97,CL,1619557687
524,Sfântu Gheorghe,45.8667,25.7833,37.0,86,100,10.0,RO,1619557687
525,Juneau,58.3019,-134.4197,46.4,71,90,3.44,US,1619557687
526,Sheopur,25.6667,76.7,86.14,7,0,4.05,IN,1619557688
527,Bilibino,68.0546,166.4372,15.57,91,95,1.88,RU,1619557688
528,Buin,-33.7333,-70.75,69.8,43,0,4.61,CL,1619557688
529,Vigrestad,58.5667,5.7,39.99,74,82,7.49,NO,1619557689
530,Sapa,5.1544,120.3241,80.96,77,10,2.66,PH,1619557689
531,Najrān,17.4924,44.1277,75.2,64,75,2.64,SA,1619557689
532,Los Llanos de Aridane,28.6585,-17.9182,68.0,68,90,3.44,ES,1619557689
533,Great Yarmouth,52.6083,1.7305,46.4,81,74,5.75,GB,1619557690
534,Kodino,63.7198,39.6447,29.61,86,100,4.79,RU,1619557690
535,Dalmatovo,56.26,62.9362,45.88,68,100,9.89,RU,1619557690
536,Maricao,18.1808,-66.9799,73.99,91,89,1.01,PR,1619557690
537,Lipin Bor,60.2622,37.9763,34.34,99,100,3.76,RU,1619557691
538,Gazli,40.1333,63.45,78.06,15,47,7.92,UZ,1619557691
539,Saint George,37.1041,-113.5841,63.0,47,75,5.75,US,1619557691
540,Camacha,33.0833,-16.3333,64.4,77,40,8.05,PT,1619557692
541,Bobo-Dioulasso,11.1771,-4.2979,89.6,48,20,2.3,BF,1619557445
542,Abnūb,27.2696,31.1511,71.6,49,0,13.8,EG,1619557692
543,Hegang,47.4,130.3667,47.73,89,100,2.26,CN,1619557693
544,Nhulunbuy,-12.2333,136.7667,75.2,100,48,5.75,AU,1619557693
545,Burgeo,47.6167,-57.6152,39.25,90,100,15.1,CA,1619557693
546,Erzin,36.9559,36.2,64.99,88,48,0.87,TR,1619557694
547,Lahat,-3.8,103.5333,71.98,91,46,2.46,ID,1619557694
548,Puerto Escondido,15.85,-97.0667,87.8,70,1,6.91,MX,1619557694
549,Viareggio,43.8735,10.2558,57.0,94,75,10.36,IT,1619557695
550,Troitskoye,52.9821,84.6757,47.8,97,100,6.31,RU,1619557695
551,Mahon,39.8885,4.2658,59.0,77,75,2.3,ES,1619557695
552,Saint-François,46.4154,3.9054,55.0,66,0,2.3,FR,1619557695
553,Tarko-Sale,64.9225,77.785,33.01,88,100,6.11,RU,1619557696
554,Bagotville,-28.9833,153.4167,59.0,100,75,7.18,AU,1619557696
555,Pita,10.8333,-12.5833,87.75,32,72,1.39,GN,1619557697
556,Nossa Senhora das Dores,-10.4917,-37.1933,82.4,74,20,8.05,BR,1619557697
557,Lumphat,13.4878,106.9816,75.69,88,100,2.13,KH,1619557697
558,Havre-St-Pierre,50.2334,-63.5986,41.0,93,90,4.61,CA,1619557698
559,Lodja,-3.4833,23.4333,73.31,86,35,2.66,CD,1619557698
560,Cockburn Town,21.4612,-71.1419,78.67,72,1,16.02,TC,1619557504
561,Denizli Province,37.8402,29.0698,53.6,66,0,4.52,TR,1619557698
562,Aden,12.7794,45.0367,82.85,80,26,14.36,YE,1619557443
563,Porto Velho,-8.7619,-63.9039,82.4,74,40,4.61,BR,1619557699
564,Santa Rita,-7.1139,-34.9781,78.8,89,20,8.05,BR,1619557699
565,Sistranda,63.7256,8.834,37.4,65,40,5.75,NO,1619557699
566,Jiangyou,31.7667,104.7167,59.7,81,100,3.2,CN,1619557700
567,Tacaná,15.2333,-92.0833,87.8,70,40,11.5,GT,1619557700
568,East Wenatchee Bench,47.4257,-120.2812,68.0,27,1,6.91,US,1619557700
569,Socorro,31.6546,-106.3033,77.0,13,90,11.5,US,1619557701
570,Yamada,39.4667,141.95,48.67,61,67,4.7,JP,1619557701
571,Schmalkalden,50.7167,10.45,42.01,66,44,3.83,DE,1619557702
572,Tabou,4.423,-7.3528,81.1,82,92,8.14,CI,1619557702
573,Buala,-8.145,159.5921,78.26,88,100,3.8,SB,1619557702
574,Villarrica,-25.75,-56.4333,63.75,59,0,5.1,PY,1619557543
575,Mackay,-21.15,149.2,66.2,94,40,10.36,AU,1619557702
576,Cururupu,-1.8283,-44.8683,77.25,87,79,3.4,BR,1619557703
577,Mahon,39.8885,4.2658,59.0,77,75,2.3,ES,1619557703
578,Kristinestad,62.2743,21.376,30.69,87,12,6.85,FI,1619557703
579,Saint-Augustin,51.226,-58.6502,37.49,98,100,11.56,CA,1619557460
580,Komsomolets,53.7453,62.0708,44.69,86,100,8.01,KZ,1619557704
581,Collierville,35.042,-89.6645,81.0,65,90,17.27,US,1619557704
582,Cerrito,6.8432,-72.694,73.4,88,75,3.44,CO,1619557705
